{"name":"Wineries.JSON","type":"FeatureCollection"
,"features":[
{"type":"Feature","geometry":{"type":"Point","coordinates":[-79.1588543509868,43.1647291413457]},"properties":{"Name":"Maleta Vineyards","Municipality":"Niagara-on-the-Lake","Phone":"905-685-8486","URL":"http://www.maletawinery.com","FullAddress":"450 Queenston Road"}}
,{"type":"Feature","geometry":{"type":"Point","coordinates":[-79.5832678940832,43.20286724347]},"properties":{"Name":"Kittling Ridge Wines & Spirits","Municipality":"Grimsby","Phone":"905-945-9225","URL":"http://www.kittlingridge.com","FullAddress":"297 South Service Road"}}
,{"type":"Feature","geometry":{"type":"Point","coordinates":[-79.6215161440233,43.2122848128121]},"properties":{"Name":"Andres Wines","Municipality":"Grimsby","Phone":"905-643-4131","URL":"http://www.andrewpeller.com","FullAddress":"697 South Service Road"}}
,{"type":"Feature","geometry":{"type":"Point","coordinates":[-79.4645771731436,43.1447677170022]},"properties":{"Name":"Crown Bench Estate Winery","Municipality":"Lincoln","Phone":"905-563-3959","URL":"http://www.crownbenchestates.com","FullAddress":"3850 Aberdeen Road"}}
,{"type":"Feature","geometry":{"type":"Point","coordinates":[-79.4158466221523,43.1481142032945]},"properties":{"Name":"Ridgepoint Wines","Municipality":"Lincoln","Phone":"905-562-8853","URL":"http://www.ridgepointwines.com","FullAddress":"3900 Cherry Avenue"}}
,{"type":"Feature","geometry":{"type":"Point","coordinates":[-79.4129117822032,43.1779008201972]},"properties":{"Name":"Royal Demaria Wines","Municipality":"Lincoln","Phone":"905-562-6767","URL":"http://www.royaldemaria.com","FullAddress":"4551 Cherry Avenue"}}
,{"type":"Feature","geometry":{"type":"Point","coordinates":[-79.3740696592384,43.1138135274627]},"properties":{"Name":"Ferndale Vineyards Inc.","Municipality":"Lincoln","Phone":"905-562-3494","URL":"","FullAddress":"3026 Eighth Avenue"}}
,{"type":"Feature","geometry":{"type":"Point","coordinates":[-79.3328708431835,43.1521707563577]},"properties":{"Name":"Creekside Estate Winery","Municipality":"Lincoln","Phone":"905-562-0035","URL":"http://www.creeksidewine.com/","FullAddress":"2170 Fourth Avenue"}}
,{"type":"Feature","geometry":{"type":"Point","coordinates":[-79.3618007502895,43.1738415744685]},"properties":{"Name":"Harbour Estates Winery","Municipality":"Lincoln","Phone":"905-562-6279","URL":"http://www.hewwine.com","FullAddress":"4362 Jordan Road"}}
,{"type":"Feature","geometry":{"type":"Point","coordinates":[-79.382314368361,43.1485874998725]},"properties":{"Name":"Stoney Ridge Cellars","Municipality":"Lincoln","Phone":"905-562-1324","URL":"http://www.stoneyridge.com","FullAddress":"3201 King Street"}}
,{"type":"Feature","geometry":{"type":"Point","coordinates":[-79.4005175135424,43.1512436401372]},"properties":{"Name":"Kacaba Vineyards","Municipality":"Lincoln","Phone":"905-562-5625","URL":"http://www.kacaba.com","FullAddress":"3550 King Street"}}
,{"type":"Feature","geometry":{"type":"Point","coordinates":[-79.4116426135636,43.1585036968173]},"properties":{"Name":"Wayne Gretzky Estates Winery ","Municipality":"Lincoln","Phone":"905-562-4945","URL":"http://www.gretzky.com/wine/","FullAddress":"3751 King Street"}}
,{"type":"Feature","geometry":{"type":"Point","coordinates":[-79.4379513418766,43.1592726488025]},"properties":{"Name":"Thomas & Vaughan Vintners","Municipality":"Lincoln","Phone":"905-563-7737","URL":"http://www.frugal-wine.com/wineries/t-and-v.html","FullAddress":"4245 King Street"}}
,{"type":"Feature","geometry":{"type":"Point","coordinates":[-79.4384721140043,43.157826584505]},"properties":{"Name":"Malivoire Wine Company","Municipality":"Lincoln","Phone":"905-563-9253","URL":"http://www.malivoirewineco.com","FullAddress":"4260 King Street"}}
,{"type":"Feature","geometry":{"type":"Point","coordinates":[-79.4897156972719,43.169181322855]},"properties":{"Name":"Daniel Lenko Winery","Municipality":"Lincoln","Phone":"905-563-7756","URL":"http://www.daniellenko.com","FullAddress":"5246 King Street"}}
,{"type":"Feature","geometry":{"type":"Point","coordinates":[-79.5091226832964,43.176702039266]},"properties":{"Name":"Peninsula Ridge Estates Winery Ltd.","Municipality":"Lincoln","Phone":"905-563-0900","URL":"http://www.peninsularidge.com","FullAddress":"5600 King Street"}}
,{"type":"Feature","geometry":{"type":"Point","coordinates":[-79.3701348655562,43.1488114982451]},"properties":{"Name":"Cave Spring Cellars","Municipality":"Lincoln","Phone":"905-562-3581","URL":"http://www.cavespring.ca","FullAddress":"3836 Main Street"}}
,{"type":"Feature","geometry":{"type":"Point","coordinates":[-79.4798715489505,43.1538675677382]},"properties":{"Name":"Mountain Road Wine Company","Municipality":"Lincoln","Phone":"905-563-0745","URL":"http://www.mountainroadwine.com","FullAddress":"4016 Mountain Street"}}
,{"type":"Feature","geometry":{"type":"Point","coordinates":[-79.5002628267609,43.1644987895687]},"properties":{"Name":"Angels Gate Winery","Municipality":"Lincoln","Phone":"905-563-3942","URL":"http://www.angelsgatewinery.com","FullAddress":"4260 Mountainview Road"}}
,{"type":"Feature","geometry":{"type":"Point","coordinates":[-79.4956538607091,43.1660034000749]},"properties":{"Name":"Thirty Bench Vineyards","Municipality":"Lincoln","Phone":"905-563-1698","URL":"http://www.thirtybench.com","FullAddress":"4281 Mountainview Road"}}
,{"type":"Feature","geometry":{"type":"Point","coordinates":[-79.4054409354776,43.1425316406602]},"properties":{"Name":"Vineland Estates Winery","Municipality":"Lincoln","Phone":"905-562-7088","URL":"http://www.vineland.com","FullAddress":"3620 Moyer Road"}}
,{"type":"Feature","geometry":{"type":"Point","coordinates":[-79.4289466228859,43.1882650661148]},"properties":{"Name":"Maple Grove Vinoteca Estate Winery","Municipality":"Lincoln","Phone":"905-562-7415","URL":"","FullAddress":"4063 North Service Road"}}
,{"type":"Feature","geometry":{"type":"Point","coordinates":[-79.4762307870743,43.1849508535158]},"properties":{"Name":"Magnotta Winery Estates Ltd.","Municipality":"Lincoln","Phone":"905-563-5313","URL":"http://www.magnotta.com","FullAddress":"4701 Ontario Street"}}
,{"type":"Feature","geometry":{"type":"Point","coordinates":[-79.4775660403647,43.1944598436808]},"properties":{"Name":"Legends Estate Winery","Municipality":"Lincoln","Phone":"905-563-6500","URL":"http://www.legendsestates.com","FullAddress":"4888 Ontario Street"}}
,{"type":"Feature","geometry":{"type":"Point","coordinates":[-79.4582190070954,43.1415185516616]},"properties":{"Name":"De Sousa Wine Cellars","Municipality":"Lincoln","Phone":"905-563-7269","URL":"http://www.desousawines.com","FullAddress":"3753 Quarry Road"}}
,{"type":"Feature","geometry":{"type":"Point","coordinates":[-79.3598407522387,43.1263963313011]},"properties":{"Name":"Flat Rock Cellars","Municipality":"Lincoln","Phone":"905-562-8994","URL":"http://www.flatrockcellars.com","FullAddress":"2727 Seventh Avenue"}}
,{"type":"Feature","geometry":{"type":"Point","coordinates":[-79.3382986778836,43.1572857173555]},"properties":{"Name":"Thirteenth Street Wine Company","Municipality":"Lincoln","Phone":"905-562-9463","URL":"http://www.13thstreetwines.com","FullAddress":"3983 Thirteenth Street"}}
,{"type":"Feature","geometry":{"type":"Point","coordinates":[-79.3946348029602,43.1400292458934]},"properties":{"Name":"Featherstone Estate Winery & Vineyard","Municipality":"Lincoln","Phone":"905-562-1949","URL":"http://www.featherstonewinery.ca","FullAddress":"3678 Victoria Avenue"}}
,{"type":"Feature","geometry":{"type":"Point","coordinates":[-79.0721567565562,43.2057798331286]},"properties":{"Name":"Marynissen Estates","Municipality":"Niagara-on-the-Lake","Phone":"905-468-7270","URL":"http://www.marynissen.com","FullAddress":"1208 Concession 1 Road"}}
,{"type":"Feature","geometry":{"type":"Point","coordinates":[-79.1187670363124,43.1696582658413]},"properties":{"Name":"Coyote's Run Estate Winery","Municipality":"Niagara-on-the-Lake","Phone":"905-682-8310","URL":"http://www.coyotesrunwinery.com","FullAddress":"485 Concession 5 Road"}}
,{"type":"Feature","geometry":{"type":"Point","coordinates":[-79.0670463051689,43.2385486416229]},"properties":{"Name":"Peller Estate Winery","Municipality":"Niagara-on-the-Lake","Phone":"905-468-4678","URL":"http://www.peller.com","FullAddress":"1444 East and West Line"}}
,{"type":"Feature","geometry":{"type":"Point","coordinates":[-79.1271709233644,43.2366077125052]},"properties":{"Name":"Domaine Vagners Winery","Municipality":"Niagara-on-the-Lake","Phone":"905-468-7296","URL":"","FullAddress":"1973 Four Mile Creek Road"}}
,{"type":"Feature","geometry":{"type":"Point","coordinates":[-79.171789940118,43.2246039300437]},"properties":{"Name":"Stonechurch Vineyards","Municipality":"Niagara-on-the-Lake","Phone":"905-935-3535","URL":"http://www.stonechurch.com","FullAddress":"1242 Irvine Road"}}
,{"type":"Feature","geometry":{"type":"Point","coordinates":[-79.1506600748876,43.24414568489]},"properties":{"Name":"Palatine Hills Estate","Municipality":"Niagara-on-the-Lake","Phone":"905-646-9617","URL":"https://palatinehillsestatewinery.com/","FullAddress":"911 Lakeshore Road"}}
,{"type":"Feature","geometry":{"type":"Point","coordinates":[-79.1413477111616,43.2502165099366]},"properties":{"Name":"Konzelmann Estate Winery","Municipality":"Niagara-on-the-Lake","Phone":"905-935-2866","URL":"http://www.konzelmannwines.com","FullAddress":"1096 Lakeshore Road"}}
,{"type":"Feature","geometry":{"type":"Point","coordinates":[-79.1257789638047,43.2525636326595]},"properties":{"Name":"Strewn Winery","Municipality":"Niagara-on-the-Lake","Phone":"905-468-1229","URL":"http://www.strewnwinery.com","FullAddress":"1339 Lakeshore Road"}}
,{"type":"Feature","geometry":{"type":"Point","coordinates":[-79.1203130817253,43.2525795854151]},"properties":{"Name":"Sunnybrook Farm Estate Winery","Municipality":"Niagara-on-the-Lake","Phone":"905-468-1122","URL":"http://www.sunnybrookfarmwinery.com","FullAddress":"1425 Lakeshore Road"}}
,{"type":"Feature","geometry":{"type":"Point","coordinates":[-79.0713737718904,43.1999163194626]},"properties":{"Name":"Frogpond Farm","Municipality":"Niagara-on-the-Lake","Phone":"905-468-1079","URL":"http://www.frogpondfarm.ca","FullAddress":"1385 Larkin Road"}}
,{"type":"Feature","geometry":{"type":"Point","coordinates":[-79.0974739530603,43.2191889230349]},"properties":{"Name":"Caroline Cellars","Municipality":"Niagara-on-the-Lake","Phone":"905-468-8814","URL":"http://www.carolinecellars.com/","FullAddress":"1028 Line 2 Road"}}
,{"type":"Feature","geometry":{"type":"Point","coordinates":[-79.0634626508704,43.2101525033748]},"properties":{"Name":"Inniskillin Wines Inc.","Municipality":"Niagara-on-the-Lake","Phone":"905-468-2187","URL":"http://www.inniskillin.com","FullAddress":"1499 Line 3 Road"}}
,{"type":"Feature","geometry":{"type":"Point","coordinates":[-79.0594083060272,43.2057723481393]},"properties":{"Name":"Riverview Cellars","Municipality":"Niagara-on-the-Lake","Phone":"905-262-0636","URL":"http://www.riverviewcellars.com","FullAddress":"15370 Niagara River Parkway"}}
,{"type":"Feature","geometry":{"type":"Point","coordinates":[-79.0631064505641,43.2317690584792]},"properties":{"Name":"Lailey Vineyard Wines Inc.","Municipality":"Niagara-on-the-Lake","Phone":"905-468-0503","URL":"http://www.laileyvineyard.com","FullAddress":"15940 Niagara River Parkway"}}
,{"type":"Feature","geometry":{"type":"Point","coordinates":[-79.1334874008469,43.2125155683306]},"properties":{"Name":"Hillebrand Estate Winery","Municipality":"Niagara-on-the-Lake","Phone":"905-468-7123","URL":"http://www.hillebrand.com","FullAddress":"1249 Niagara Stone Road"}}
,{"type":"Feature","geometry":{"type":"Point","coordinates":[-79.1138856127854,43.2292170926928]},"properties":{"Name":"Pillitteri Estates Winery","Municipality":"Niagara-on-the-Lake","Phone":"905-468-3147","URL":"http://www.pillitteri.com","FullAddress":"1696 Niagara Stone Road"}}
,{"type":"Feature","geometry":{"type":"Point","coordinates":[-79.1078278646974,43.2324254611617]},"properties":{"Name":"Joseph's Estate Wines","Municipality":"Niagara-on-the-Lake","Phone":"905-468-1259","URL":"http://www.josephsestatewines.com","FullAddress":"1799 Niagara Stone Road"}}
,{"type":"Feature","geometry":{"type":"Point","coordinates":[-79.0966251335287,43.2407656601049]},"properties":{"Name":"Stratus Winery","Municipality":"Niagara-on-the-Lake","Phone":"905-468-1806","URL":"http://www.stratuswines.com","FullAddress":"2059 Niagara Stone Road"}}
,{"type":"Feature","geometry":{"type":"Point","coordinates":[-79.091796801871,43.2438139239099]},"properties":{"Name":"Jackson-Triggs Niagara Estate","Municipality":"Niagara-on-the-Lake","Phone":"905-468-4637","URL":"http://www.jacksontriggswinery.com","FullAddress":"2145 Niagara Stone Road"}}
,{"type":"Feature","geometry":{"type":"Point","coordinates":[-79.125086201738,43.1558915077758]},"properties":{"Name":"Chateau des Charmes","Municipality":"Niagara-on-the-Lake","Phone":"905-262-4219","URL":"http://www.chateaudescharmes.com","FullAddress":"1025 York Road"}}
,{"type":"Feature","geometry":{"type":"Point","coordinates":[-79.2957263990641,43.1087311878252]},"properties":{"Name":"Henry of Pelham Family Estate Winery","Municipality":"Pelham","Phone":"905-684-8423","URL":"http://www.henryofpelham.com","FullAddress":"1469 Pelham Road"}}
,{"type":"Feature","geometry":{"type":"Point","coordinates":[-79.3034245336245,43.1187634383154]},"properties":{"Name":"Hernder Estate Wines","Municipality":"St. Catharines","Phone":"905-684-3300","URL":"http://www.hernder.com","FullAddress":"1607 Eighth Avenue Louth"}}
,{"type":"Feature","geometry":{"type":"Point","coordinates":[-79.2767982345867,43.1557500163506]},"properties":{"Name":"Harvest Estate Wines","Municipality":"St. Catharines","Phone":"905-682-0080","URL":"http://www.harvestwines.com","FullAddress":"1179 Fourth Avenue"}}
,{"type":"Feature","geometry":{"type":"Point","coordinates":[-79.4954884632742,43.152192167447]},"properties":{"Name":"Fielding Wines Ltd.","Municipality":"Lincoln","Phone":"905-563-0668","URL":"http://www.fieldingwines.com","FullAddress":"4020 Locust Lane"}}
,{"type":"Feature","geometry":{"type":"Point","coordinates":[-79.1642732335467,43.151958088275]},"properties":{"Name":"Niagara College Teaching Winery","Municipality":"Niagara-on-the-Lake","Phone":"905-641-2252","URL":"http://www.nctwinery.ca/","FullAddress":"135 Taylor Road"}}
,{"type":"Feature","geometry":{"type":"Point","coordinates":[-79.0612010534017,43.2174851154031]},"properties":{"Name":"Reif Estate Winery","Municipality":"Niagara-on-the-Lake","Phone":"905-468-7738","URL":"http://www.reifwinery.com","FullAddress":"15608 Niagara Parkway"}}
,{"type":"Feature","geometry":{"type":"Point","coordinates":[-79.319009215899,43.1259182119942]},"properties":{"Name":"Rockway Glen Estate Winery","Municipality":"Lincoln","Phone":"905-641-5771","URL":"http://www.rockwayglen.com","FullAddress":"3290 Ninth Street"}}
,{"type":"Feature","geometry":{"type":"Point","coordinates":[-79.4116057936696,43.1514949820578]},"properties":{"Name":"Tawse Family Winery","Municipality":"Lincoln","Phone":"905-563-6998","URL":"http://www.tawsewinery.ca","FullAddress":"3955 Cherry Avenue"}}
,{"type":"Feature","geometry":{"type":"Point","coordinates":[-79.4948909783367,43.1564855908078]},"properties":{"Name":"The Organized Crime Winery","Municipality":"Lincoln","Phone":"905-563-9802","URL":"http://www.organizedcrimewine.com/","FullAddress":"4043 Mountainview Road"}}
,{"type":"Feature","geometry":{"type":"Point","coordinates":[-79.4254491300558,43.1482240618298]},"properties":{"Name":"John Howard Cellars of Distinction","Municipality":"Lincoln","Phone":"not available","URL":"http://www.megalomaniacwine.com/main.php","FullAddress":"4352 Tintern Road"}}
,{"type":"Feature","geometry":{"type":"Point","coordinates":[-79.5005934910926,43.1667211618973]},"properties":{"Name":"Rosewood Estates Winery and Meadery","Municipality":"Lincoln","Phone":"905-563-4383","URL":"http://www.rosewoodwine.com","FullAddress":"4352 Mountainview Road"}}
,{"type":"Feature","geometry":{"type":"Point","coordinates":[-79.3522672953611,43.1785941737798]},"properties":{"Name":"Le Clos Jordane","Municipality":"Lincoln","Phone":"905-562-9404","URL":"http://www.leclosjordanne.com/","FullAddress":"2540 South Service Road"}}
,{"type":"Feature","geometry":{"type":"Point","coordinates":[-79.3760734438643,43.1709098460882]},"properties":{"Name":"Alvento Winery","Municipality":"Lincoln","Phone":"905-562-1212","URL":"http://www.alvento.ca/","FullAddress":"3048 Second Avenue"}}
,{"type":"Feature","geometry":{"type":"Point","coordinates":[-79.3789957934699,43.1301998987962]},"properties":{"Name":"Calamus Estate Winery ","Municipality":"Lincoln","Phone":"905-562-9303","URL":"http://www.calamuswines.com/","FullAddress":"3100 Glen Road"}}
,{"type":"Feature","geometry":{"type":"Point","coordinates":[-79.446685255108,43.1717591451431]},"properties":{"Name":"Cornerstone Estate Winery","Municipality":"Lincoln","Phone":"905-563-6758","URL":"http://www.cornerstonewinery.com/ ","FullAddress":"4390 Tufford Road"}}
,{"type":"Feature","geometry":{"type":"Point","coordinates":[-79.4921750840813,43.1587583969175]},"properties":{"Name":"Hidden Bench Vineyards and Winery","Municipality":"Lincoln","Phone":"905-563-8700","URL":"http://www.hiddenbench.com/","FullAddress":"4152 Locust Lane"}}
,{"type":"Feature","geometry":{"type":"Point","coordinates":[-79.1358952768056,43.2010559142014]},"properties":{"Name":"Cattail Creek Family Estate Winery ","Municipality":"Niagara-on-the-Lake","Phone":"905-988-9463","URL":"http://www.cattailcreek.ca/","FullAddress":"1156 Concession 6 Road"}}
,{"type":"Feature","geometry":{"type":"Point","coordinates":[-79.1111688996199,43.2354015348221]},"properties":{"Name":"Vignoble Rancourt Winery ","Municipality":"Niagara-on-the-Lake","Phone":"905-468-2882","URL":"http://www.rancourtwinery.com/EN/index.html","FullAddress":"1829 Concession 4 Road "}}
,{"type":"Feature","geometry":{"type":"Point","coordinates":[-79.0620807086372,43.1781454006904]},"properties":{"Name":"The Ice House Winery ","Municipality":"Niagara-on-the-Lake","Phone":"905-262-6161","URL":"http://www.theicehouse.ca/","FullAddress":"14778 Niagara River Parkway"}}
,{"type":"Feature","geometry":{"type":"Point","coordinates":[-79.164010476361,43.1889972990796]},"properties":{"Name":"Southbrook Vineyards","Municipality":"Niagara-on-the-Lake","Phone":"905-641-2548","URL":"http://southbrook.com/","FullAddress":"581 Niagara Stone Road"}}
]}
